{
  "type": "FeatureCollection",
  "name": "onasafe_demo_crashes",
  "metadata": {
    "disclaimer": "All records are simulated for interface demonstration and are not verified crash events.",
    "generated_at": "2026-07-17T04:00:00Z"
  },
  "features": [
    {"type":"Feature","properties":{"id":"DEMO-001","location":"Lagos Toll Gate approach","severity":"serious","date":"2026-06-28","captured_at":"2026-06-28T08:10:00Z","coordinate_accuracy_m":25,"provenance":"simulated_demo","cause":"Speed and lane conflict","verification":"simulated","description":"Multi-vehicle collision demonstration record near a high-volume merge."},"geometry":{"type":"Point","coordinates":[3.4018,6.5937]}},
    {"type":"Feature","properties":{"id":"DEMO-002","location":"OPIC interchange","severity":"minor","date":"2026-06-24","captured_at":"2026-06-24T15:30:00Z","coordinate_accuracy_m":25,"provenance":"simulated_demo","cause":"Wet pavement","verification":"simulated","description":"Low-speed impact demonstration record during rainfall."},"geometry":{"type":"Point","coordinates":[3.4635,6.6629]}},
    {"type":"Feature","properties":{"id":"DEMO-003","location":"Ibafo corridor","severity":"fatal","date":"2026-06-19","captured_at":"2026-06-19T22:05:00Z","coordinate_accuracy_m":30,"provenance":"simulated_demo","cause":"Night visibility","verification":"simulated","description":"Fatal-severity demonstration record used for hotspot visualization."},"geometry":{"type":"Point","coordinates":[3.4447,6.7281]}},
    {"type":"Feature","properties":{"id":"DEMO-004","location":"Mowe corridor","severity":"serious","date":"2026-06-12","captured_at":"2026-06-12T13:45:00Z","coordinate_accuracy_m":20,"provenance":"simulated_demo","cause":"Commercial vehicle conflict","verification":"simulated","description":"Serious-injury demonstration record involving mixed traffic."},"geometry":{"type":"Point","coordinates":[3.4362,6.8070]}},
    {"type":"Feature","properties":{"id":"DEMO-005","location":"Arepo approach","severity":"minor","date":"2026-05-30","captured_at":"2026-05-30T11:20:00Z","coordinate_accuracy_m":20,"provenance":"simulated_demo","cause":"Unsafe lane change","verification":"simulated","description":"Minor-severity demonstration record near a roadside activity zone."},"geometry":{"type":"Point","coordinates":[3.4278,6.6912]}},
    {"type":"Feature","properties":{"id":"DEMO-006","location":"Sagamu Interchange","severity":"fatal","date":"2026-05-20","captured_at":"2026-05-20T18:40:00Z","coordinate_accuracy_m":25,"provenance":"simulated_demo","cause":"Speed and heavy vehicle interaction","verification":"simulated","description":"Fatal-severity demonstration record at a strategic interchange."},"geometry":{"type":"Point","coordinates":[3.6315,6.8390]}},
    {"type":"Feature","properties":{"id":"DEMO-007","location":"Ogere corridor","severity":"serious","date":"2026-05-13","captured_at":"2026-05-13T05:55:00Z","coordinate_accuracy_m":30,"provenance":"simulated_demo","cause":"Driver fatigue","verification":"simulated","description":"Serious crash demonstration record on a long-distance segment."},"geometry":{"type":"Point","coordinates":[3.6534,6.9373]}},
    {"type":"Feature","properties":{"id":"DEMO-008","location":"Fidiwo corridor","severity":"fatal","date":"2026-04-29","captured_at":"2026-04-29T16:15:00Z","coordinate_accuracy_m":30,"provenance":"simulated_demo","cause":"Wrong-way movement","verification":"simulated","description":"Fatal-severity demonstration record for corridor risk modelling."},"geometry":{"type":"Point","coordinates":[3.7272,7.0206]}},
    {"type":"Feature","properties":{"id":"DEMO-009","location":"Onigari corridor","severity":"minor","date":"2026-04-18","captured_at":"2026-04-18T09:35:00Z","coordinate_accuracy_m":25,"provenance":"simulated_demo","cause":"Roadside obstruction","verification":"simulated","description":"Minor crash demonstration record near a roadside stopping area."},"geometry":{"type":"Point","coordinates":[3.8070,7.1080]}},
    {"type":"Feature","properties":{"id":"DEMO-010","location":"Guru Maharaji area","severity":"serious","date":"2026-04-04","captured_at":"2026-04-04T19:50:00Z","coordinate_accuracy_m":30,"provenance":"simulated_demo","cause":"Rain and low visibility","verification":"simulated","description":"Serious-severity demonstration record under adverse weather."},"geometry":{"type":"Point","coordinates":[3.8354,7.2069]}},
    {"type":"Feature","properties":{"id":"DEMO-011","location":"Challenge approach, Ibadan","severity":"fatal","date":"2026-03-26","captured_at":"2026-03-26T07:25:00Z","coordinate_accuracy_m":20,"provenance":"simulated_demo","cause":"Intersection conflict","verification":"simulated","description":"Fatal-severity demonstration record near the urban transition."},"geometry":{"type":"Point","coordinates":[3.8659,7.3510]}},
    {"type":"Feature","properties":{"id":"DEMO-012","location":"Iwo Road approach, Ibadan","severity":"serious","date":"2026-03-14","captured_at":"2026-03-14T17:05:00Z","coordinate_accuracy_m":20,"provenance":"simulated_demo","cause":"Traffic congestion and unsafe overtaking","verification":"simulated","description":"Serious crash demonstration record in a dense traffic environment."},"geometry":{"type":"Point","coordinates":[3.9312,7.4012]}}
  ]
}
